{
"type": "FeatureCollection",
"name": "AllParishes_centroids",
"crs": { "type": "name", "properties": { "name": "urn:ogc:def:crs:OGC:1.3:CRS84" } },
"features": [
{ "type": "Feature", "properties": { "GEOID": "22019", "NAMELSAD": "Calcasieu Parish", "NAMESHRT": "Calcasieu", "x1": -93.765851, "y1": 30.038041, "x2": -92.887222, "y2": 30.490523, "lbl_x": -93.357945, "lbl_y": 30.229224 }, "geometry": { "type": "Point", "coordinates": [ -93.357945161613713, 30.22922390034357 ] } },
{ "type": "Feature", "properties": { "GEOID": "22111", "NAMELSAD": "Union Parish", "NAMESHRT": "Union", "x1": -92.734057, "y1": 32.580888, "x2": -92.052075, "y2": 33.014479, "lbl_x": -92.374806, "lbl_y": 32.831888 }, "geometry": { "type": "Point", "coordinates": [ -92.374805574892378, 32.831888498550647 ] } },
{ "type": "Feature", "properties": { "GEOID": "22105", "NAMELSAD": "Tangipahoa Parish", "NAMESHRT": "Tangipahoa", "x1": -90.567529, "y1": 30.234337, "x2": -90.160636, "y2": 31.00053, "lbl_x": -90.405681, "lbl_y": 30.626652 }, "geometry": { "type": "Point", "coordinates": [ -90.405680526650897, 30.626652321417453 ] } },
{ "type": "Feature", "properties": { "GEOID": "22021", "NAMELSAD": "Caldwell Parish", "NAMESHRT": "Caldwell", "x1": -92.312885, "y1": 31.927088, "x2": -91.867558, "y2": 32.277441, "lbl_x": -92.137708, "lbl_y": 32.102265 }, "geometry": { "type": "Point", "coordinates": [ -92.11660587613531, 32.092271548618001 ] } },
{ "type": "Feature", "properties": { "GEOID": "22107", "NAMELSAD": "Tensas Parish", "NAMESHRT": "Tensas", "x1": -91.580017, "y1": 31.733255, "x2": -91.030207, "y2": 32.249667, "lbl_x": -91.340073, "lbl_y": 32.001661 }, "geometry": { "type": "Point", "coordinates": [ -91.340072996453586, 32.0016607750647 ] } },
{ "type": "Feature", "properties": { "GEOID": "22049", "NAMELSAD": "Jackson Parish", "NAMESHRT": "Jackson", "x1": -92.8223, "y1": 32.145625, "x2": -92.311599, "y2": 32.496406, "lbl_x": -92.55774, "lbl_y": 32.302035 }, "geometry": { "type": "Point", "coordinates": [ -92.557740111697697, 32.302034925221733 ] } },
{ "type": "Feature", "properties": { "GEOID": "22043", "NAMELSAD": "Grant Parish", "NAMESHRT": "Grant", "x1": -92.973529, "y1": 31.387946, "x2": -92.196131, "y2": 31.797149, "lbl_x": -92.55952, "lbl_y": 31.599704 }, "geometry": { "type": "Point", "coordinates": [ -92.55952045125035, 31.599703678969981 ] } },
{ "type": "Feature", "properties": { "GEOID": "22061", "NAMELSAD": "Lincoln Parish", "NAMESHRT": "Lincoln", "x1": -92.881359, "y1": 32.452849, "x2": -92.41505, "y2": 32.759982, "lbl_x": -92.727793, "lbl_y": 32.606415 }, "geometry": { "type": "Point", "coordinates": [ -92.664815283863305, 32.601637373721431 ] } },
{ "type": "Feature", "properties": { "GEOID": "22053", "NAMELSAD": "Jefferson Davis Parish", "NAMESHRT": "Jefferson Davis", "x1": -93.131155, "y1": 30.037323, "x2": -92.583089, "y2": 30.488284, "lbl_x": -92.814121, "lbl_y": 30.267722 }, "geometry": { "type": "Point", "coordinates": [ -92.814120914979014, 30.267721879457159 ] } },
{ "type": "Feature", "properties": { "GEOID": "22055", "NAMELSAD": "Lafayette Parish", "NAMESHRT": "Lafayette", "x1": -92.284675, "y1": 30.036918, "x2": -91.905544, "y2": 30.381559, "lbl_x": -92.063882, "lbl_y": 30.206773 }, "geometry": { "type": "Point", "coordinates": [ -92.063882124375212, 30.206772953443291 ] } },
{ "type": "Feature", "properties": { "GEOID": "22113", "NAMELSAD": "Vermilion Parish", "NAMESHRT": "Vermilion", "x1": -92.738604, "y1": 29.481496, "x2": -91.964458, "y2": 30.149422, "lbl_x": -92.304283, "lbl_y": 29.809389 }, "geometry": { "type": "Point", "coordinates": [ -92.304282946976784, 29.809389317401472 ] } },
{ "type": "Feature", "properties": { "GEOID": "22035", "NAMELSAD": "East Carroll Parish", "NAMESHRT": "East Carroll", "x1": -91.457643, "y1": 32.537539, "x2": -91.002708, "y2": 33.005091, "lbl_x": -91.235065, "lbl_y": 32.732553 }, "geometry": { "type": "Point", "coordinates": [ -91.235065111050972, 32.732553461430065 ] } },
{ "type": "Feature", "properties": { "GEOID": "22037", "NAMELSAD": "East Feliciana Parish", "NAMESHRT": "East Feliciana", "x1": -91.320706, "y1": 30.649548, "x2": -90.825829, "y2": 30.999647, "lbl_x": -91.045535, "lbl_y": 30.845071 }, "geometry": { "type": "Point", "coordinates": [ -91.045535073650086, 30.845070770883936 ] } },
{ "type": "Feature", "properties": { "GEOID": "22087", "NAMELSAD": "St. Bernard Parish", "NAMESHRT": "St. Bernard", "x1": -90.012102, "y1": 29.617551, "x2": -88.758388, "y2": 30.212155, "lbl_x": -89.304127, "lbl_y": 29.904726 }, "geometry": { "type": "Point", "coordinates": [ -89.304127364913754, 29.904725730782598 ] } },
{ "type": "Feature", "properties": { "GEOID": "22047", "NAMELSAD": "Iberville Parish", "NAMESHRT": "Iberville", "x1": -91.701219, "y1": 30.025336, "x2": -91.01923, "y2": 30.497433, "lbl_x": -91.360224, "lbl_y": 30.261384 }, "geometry": { "type": "Point", "coordinates": [ -91.349363193234538, 30.258498873848936 ] } },
{ "type": "Feature", "properties": { "GEOID": "22083", "NAMELSAD": "Richland Parish", "NAMESHRT": "Richland", "x1": -92.034669, "y1": 32.15155, "x2": -91.430908, "y2": 32.667341, "lbl_x": -91.763482, "lbl_y": 32.417792 }, "geometry": { "type": "Point", "coordinates": [ -91.763481842914757, 32.417791667844575 ] } },
{ "type": "Feature", "properties": { "GEOID": "22099", "NAMELSAD": "St. Martin Parish", "NAMESHRT": "St. Martin", "x1": -91.988765, "y1": 29.699402, "x2": -91.089465, "y2": 30.497738, "lbl_x": -91.756438, "lbl_y": 30.265411 }, "geometry": { "type": "Point", "coordinates": [ -91.608297506798905, 30.129072103899869 ] } },
{ "type": "Feature", "properties": { "GEOID": "22027", "NAMELSAD": "Claiborne Parish", "NAMESHRT": "Claiborne", "x1": -93.238607, "y1": 32.584045, "x2": -92.724678, "y2": 33.018393, "lbl_x": -93.021433, "lbl_y": 32.801219 }, "geometry": { "type": "Point", "coordinates": [ -92.995733242409671, 32.822693435037387 ] } },
{ "type": "Feature", "properties": { "GEOID": "22039", "NAMELSAD": "Evangeline Parish", "NAMESHRT": "Evangeline", "x1": -92.633839, "y1": 30.480443, "x2": -92.172401, "y2": 31.00156, "lbl_x": -92.405904, "lbl_y": 30.728936 }, "geometry": { "type": "Point", "coordinates": [ -92.405904200721068, 30.728936418167073 ] } },
{ "type": "Feature", "properties": { "GEOID": "22097", "NAMELSAD": "St. Landry Parish", "NAMESHRT": "St. Landry", "x1": -92.493259, "y1": 30.298817, "x2": -91.678896, "y2": 30.850038, "lbl_x": -92.005857, "lbl_y": 30.598851 }, "geometry": { "type": "Point", "coordinates": [ -92.005856860930933, 30.598851095194068 ] } },
{ "type": "Feature", "properties": { "GEOID": "22077", "NAMELSAD": "Pointe Coupee Parish", "NAMESHRT": "Pointe Coupee", "x1": -91.823072, "y1": 30.48259, "x2": -91.309475, "y2": 31.020012, "lbl_x": -91.600789, "lbl_y": 30.709396 }, "geometry": { "type": "Point", "coordinates": [ -91.600788844218783, 30.709395695516822 ] } },
{ "type": "Feature", "properties": { "GEOID": "22059", "NAMELSAD": "LaSalle Parish", "NAMESHRT": "LaSalle", "x1": -92.384613, "y1": 31.323064, "x2": -92.005434, "y2": 31.927873, "lbl_x": -92.160437, "lbl_y": 31.676732 }, "geometry": { "type": "Point", "coordinates": [ -92.160436503279939, 31.67673168878245 ] } },
{ "type": "Feature", "properties": { "GEOID": "22119", "NAMELSAD": "Webster Parish", "NAMESHRT": "Webster", "x1": -93.530805, "y1": 32.40992, "x2": -93.146446, "y2": 33.018697, "lbl_x": -93.338626, "lbl_y": 32.6021 }, "geometry": { "type": "Point", "coordinates": [ -93.334983309847615, 32.713454416444364 ] } },
{ "type": "Feature", "properties": { "GEOID": "22093", "NAMELSAD": "St. James Parish", "NAMESHRT": "St. James", "x1": -90.963693, "y1": 29.889182, "x2": -90.641998, "y2": 30.16643, "lbl_x": -90.796316, "lbl_y": 30.026296 }, "geometry": { "type": "Point", "coordinates": [ -90.79631578534115, 30.026296453921553 ] } },
{ "type": "Feature", "properties": { "GEOID": "22075", "NAMELSAD": "Plaquemines Parish", "NAMESHRT": "Plaquemines", "x1": -90.075683, "y1": 28.855127, "x2": -88.879235, "y2": 29.905004, "lbl_x": -89.477459, "lbl_y": 29.380066 }, "geometry": { "type": "Point", "coordinates": [ -89.481915063463219, 29.380662065263877 ] } },
{ "type": "Feature", "properties": { "GEOID": "22067", "NAMELSAD": "Morehouse Parish", "NAMESHRT": "Morehouse", "x1": -92.085617, "y1": 32.50571, "x2": -91.433352, "y2": 33.008174, "lbl_x": -91.801797, "lbl_y": 32.820218 }, "geometry": { "type": "Point", "coordinates": [ -91.801797045996267, 32.820218126839698 ] } },
{ "type": "Feature", "properties": { "GEOID": "22079", "NAMELSAD": "Rapides Parish", "NAMESHRT": "Rapides", "x1": -92.981464, "y1": 30.88934, "x2": -92.07239, "y2": 31.517594, "lbl_x": -92.5332, "lbl_y": 31.19862 }, "geometry": { "type": "Point", "coordinates": [ -92.533199625692944, 31.19862027777463 ] } },
{ "type": "Feature", "properties": { "GEOID": "22009", "NAMELSAD": "Avoyelles Parish", "NAMESHRT": "Avoyelles", "x1": -92.280743, "y1": 30.84796, "x2": -91.677242, "y2": 31.343811, "lbl_x": -92.001377, "lbl_y": 31.076244 }, "geometry": { "type": "Point", "coordinates": [ -92.001376741003753, 31.076243719981345 ] } },
{ "type": "Feature", "properties": { "GEOID": "22127", "NAMELSAD": "Winn Parish", "NAMESHRT": "Winn", "x1": -92.976035, "y1": 31.708683, "x2": -92.311783, "y2": 32.147975, "lbl_x": -92.636765, "lbl_y": 31.944249 }, "geometry": { "type": "Point", "coordinates": [ -92.636765226199458, 31.944249196955404 ] } },
{ "type": "Feature", "properties": { "GEOID": "22115", "NAMELSAD": "Vernon Parish", "NAMESHRT": "Vernon", "x1": -93.578207, "y1": 30.859183, "x2": -92.823552, "y2": 31.364818, "lbl_x": -93.20088, "lbl_y": 31.112001 }, "geometry": { "type": "Point", "coordinates": [ -93.184146698644497, 31.108293699490908 ] } },
{ "type": "Feature", "properties": { "GEOID": "22025", "NAMELSAD": "Catahoula Parish", "NAMESHRT": "Catahoula", "x1": -92.023515, "y1": 31.221012, "x2": -91.535305, "y2": 31.971533, "lbl_x": -91.847072, "lbl_y": 31.666168 }, "geometry": { "type": "Point", "coordinates": [ -91.847071605773053, 31.666168456778443 ] } },
{ "type": "Feature", "properties": { "GEOID": "22007", "NAMELSAD": "Assumption Parish", "NAMESHRT": "Assumption", "x1": -91.259932, "y1": 29.626368, "x2": -90.885195, "y2": 30.081631, "lbl_x": -91.062587, "lbl_y": 29.900772 }, "geometry": { "type": "Point", "coordinates": [ -91.062586859487695, 29.900772275910047 ] } },
{ "type": "Feature", "properties": { "GEOID": "22031", "NAMELSAD": "De Soto Parish", "NAMESHRT": "De Soto", "x1": -94.042823, "y1": 31.844237, "x2": -93.353224, "y2": 32.345646, "lbl_x": -93.737277, "lbl_y": 32.05545 }, "geometry": { "type": "Point", "coordinates": [ -93.737277373713525, 32.055449623572287 ] } },
{ "type": "Feature", "properties": { "GEOID": "22017", "NAMELSAD": "Caddo Parish", "NAMESHRT": "Caddo", "x1": -94.043352, "y1": 32.195545, "x2": -93.461792, "y2": 33.019543, "lbl_x": -93.882397, "lbl_y": 32.580194 }, "geometry": { "type": "Point", "coordinates": [ -93.882396848884227, 32.580194176391437 ] } },
{ "type": "Feature", "properties": { "GEOID": "22081", "NAMELSAD": "Red River Parish", "NAMESHRT": "Red River", "x1": -93.61469, "y1": 31.887005, "x2": -93.121188, "y2": 32.237778, "lbl_x": -93.339879, "lbl_y": 32.093147 }, "geometry": { "type": "Point", "coordinates": [ -93.339879145664284, 32.09314652372916 ] } },
{ "type": "Feature", "properties": { "GEOID": "22117", "NAMELSAD": "Washington Parish", "NAMESHRT": "Washington", "x1": -90.347334, "y1": 30.665057, "x2": -89.726922, "y2": 31.004831, "lbl_x": -90.037128, "lbl_y": 30.834944 }, "geometry": { "type": "Point", "coordinates": [ -90.04052688311782, 30.853343312528391 ] } },
{ "type": "Feature", "properties": { "GEOID": "22085", "NAMELSAD": "Sabine Parish", "NAMESHRT": "Sabine", "x1": -93.882485, "y1": 31.165515, "x2": -93.236104, "y2": 31.845832, "lbl_x": -93.554697, "lbl_y": 31.564013 }, "geometry": { "type": "Point", "coordinates": [ -93.55469686850941, 31.564012958576278 ] } },
{ "type": "Feature", "properties": { "GEOID": "22051", "NAMELSAD": "Jefferson Parish", "NAMESHRT": "Jefferson", "x1": -90.280296, "y1": 29.094648, "x2": -89.899664, "y2": 30.189613, "lbl_x": -90.08998, "lbl_y": 29.642131 }, "geometry": { "type": "Point", "coordinates": [ -90.097765399222183, 29.67745858044011 ] } },
{ "type": "Feature", "properties": { "GEOID": "22103", "NAMELSAD": "St. Tammany Parish", "NAMESHRT": "St. Tammany", "x1": -90.25766, "y1": 30.138814, "x2": -89.494973, "y2": 30.711995, "lbl_x": -89.971069, "lbl_y": 30.425404 }, "geometry": { "type": "Point", "coordinates": [ -89.954633224265478, 30.407842945703269 ] } },
{ "type": "Feature", "properties": { "GEOID": "22023", "NAMELSAD": "Cameron Parish", "NAMESHRT": "Cameron", "x1": -93.929208, "y1": 29.527129, "x2": -92.613679, "y2": 30.052637, "lbl_x": -93.198896, "lbl_y": 29.846872 }, "geometry": { "type": "Point", "coordinates": [ -93.198896475542597, 29.846871970596514 ] } },
{ "type": "Feature", "properties": { "GEOID": "22033", "NAMELSAD": "East Baton Rouge Parish", "NAMESHRT": "East Baton Rouge", "x1": -91.316565, "y1": 30.312469, "x2": -90.844181, "y2": 30.719311, "lbl_x": -91.095617, "lbl_y": 30.53824 }, "geometry": { "type": "Point", "coordinates": [ -91.095616621700628, 30.538239594698492 ] } },
{ "type": "Feature", "properties": { "GEOID": "22045", "NAMELSAD": "Iberia Parish", "NAMESHRT": "Iberia", "x1": -92.045616, "y1": 29.358942, "x2": -91.221729, "y2": 30.122484, "lbl_x": null, "lbl_y": null }, "geometry": { "type": "Point", "coordinates": [ -91.763055551180571, 29.756499848728684 ] } },
{ "type": "Feature", "properties": { "GEOID": "22069", "NAMELSAD": "Natchitoches Parish", "NAMESHRT": "Natchitoches", "x1": -93.441743, "y1": 31.346627, "x2": -92.716361, "y2": 32.148457, "lbl_x": -93.096243, "lbl_y": 31.72354 }, "geometry": { "type": "Point", "coordinates": [ -93.096243385711205, 31.723540155716826 ] } },
{ "type": "Feature", "properties": { "GEOID": "22109", "NAMELSAD": "Terrebonne Parish", "NAMESHRT": "Terrebonne", "x1": -91.354272, "y1": 28.985911, "x2": -90.376573, "y2": 29.778008, "lbl_x": -90.865422, "lbl_y": 29.38196 }, "geometry": { "type": "Point", "coordinates": [ -90.837639906391814, 29.337441889212194 ] } },
{ "type": "Feature", "properties": { "GEOID": "22013", "NAMELSAD": "Bienville Parish", "NAMESHRT": "Bienville", "x1": -93.428745, "y1": 32.146907, "x2": -92.773173, "y2": 32.585277, "lbl_x": -93.055952, "lbl_y": 32.347219 }, "geometry": { "type": "Point", "coordinates": [ -93.055951763684462, 32.347219195452432 ] } },
{ "type": "Feature", "properties": { "GEOID": "22015", "NAMELSAD": "Bossier Parish", "NAMESHRT": "Bossier", "x1": -93.845224, "y1": 32.235749, "x2": -93.372781, "y2": 33.019491, "lbl_x": -93.605046, "lbl_y": 32.678931 }, "geometry": { "type": "Point", "coordinates": [ -93.605045921230442, 32.678931027596917 ] } },
{ "type": "Feature", "properties": { "GEOID": "22003", "NAMELSAD": "Allen Parish", "NAMESHRT": "Allen", "x1": -93.131246, "y1": 30.423607, "x2": -92.582741, "y2": 30.899375, "lbl_x": -92.827879, "lbl_y": 30.652871 }, "geometry": { "type": "Point", "coordinates": [ -92.827879229737022, 30.652870533776525 ] } },
{ "type": "Feature", "properties": { "GEOID": "22073", "NAMELSAD": "Ouachita Parish", "NAMESHRT": "Ouachita", "x1": -92.415418, "y1": 32.258552, "x2": -91.90328, "y2": 32.723003, "lbl_x": -92.15487, "lbl_y": 32.478313 }, "geometry": { "type": "Point", "coordinates": [ -92.15487013225308, 32.478313146785581 ] } },
{ "type": "Feature", "properties": { "GEOID": "22095", "NAMELSAD": "St. John the Baptist Parish", "NAMESHRT": "St. John the Baptist", "x1": -90.68885, "y1": 29.883094, "x2": -90.154034, "y2": 30.298985, "lbl_x": -90.470884, "lbl_y": 30.12646 }, "geometry": { "type": "Point", "coordinates": [ -90.470883592437616, 30.126460238726189 ] } },
{ "type": "Feature", "properties": { "GEOID": "22091", "NAMELSAD": "St. Helena Parish", "NAMESHRT": "St. Helena", "x1": -90.91224, "y1": 30.649285, "x2": -90.565819, "y2": 30.999733, "lbl_x": -90.71032, "lbl_y": 30.821975 }, "geometry": { "type": "Point", "coordinates": [ -90.710320275589268, 30.821975266703969 ] } },
{ "type": "Feature", "properties": { "GEOID": "22125", "NAMELSAD": "West Feliciana Parish", "NAMESHRT": "West Feliciana", "x1": -91.750119, "y1": 30.653961, "x2": -91.176139, "y2": 31.044794, "lbl_x": -91.412622, "lbl_y": 30.875785 }, "geometry": { "type": "Point", "coordinates": [ -91.420028682860377, 30.879772728750162 ] } },
{ "type": "Feature", "properties": { "GEOID": "22101", "NAMELSAD": "St. Mary Parish", "NAMESHRT": "St. Mary", "x1": -91.935286, "y1": 29.239606, "x2": -91.082602, "y2": 29.955989, "lbl_x": -91.472926, "lbl_y": 29.634623 }, "geometry": { "type": "Point", "coordinates": [ -91.472926345679568, 29.63462338705466 ] } },
{ "type": "Feature", "properties": { "GEOID": "22057", "NAMELSAD": "Lafourche Parish", "NAMESHRT": "Lafourche", "x1": -91.006743, "y1": 28.99534, "x2": -89.998947, "y2": 29.922029, "lbl_x": -90.402595, "lbl_y": 29.500332 }, "geometry": { "type": "Point", "coordinates": [ -90.402594526972166, 29.500332240702171 ] } },
{ "type": "Feature", "properties": { "GEOID": "22123", "NAMELSAD": "West Carroll Parish", "NAMESHRT": "West Carroll", "x1": -91.638883, "y1": 32.581956, "x2": -91.261484, "y2": 33.006102, "lbl_x": -91.456738, "lbl_y": 32.788561 }, "geometry": { "type": "Point", "coordinates": [ -91.456738242382968, 32.788560536726457 ] } },
{ "type": "Feature", "properties": { "GEOID": "22029", "NAMELSAD": "Concordia Parish", "NAMESHRT": "Concordia", "x1": -91.867422, "y1": 30.970362, "x2": -91.377992, "y2": 31.762086, "lbl_x": -91.640055, "lbl_y": 31.445836 }, "geometry": { "type": "Point", "coordinates": [ -91.640054995577998, 31.445835936035511 ] } },
{ "type": "Feature", "properties": { "GEOID": "22063", "NAMELSAD": "Livingston Parish", "NAMESHRT": "Livingston", "x1": -90.991536, "y1": 30.175067, "x2": -90.47368, "y2": 30.650023, "lbl_x": -90.727907, "lbl_y": 30.440136 }, "geometry": { "type": "Point", "coordinates": [ -90.727907441675782, 30.440136244117554 ] } },
{ "type": "Feature", "properties": { "GEOID": "22121", "NAMELSAD": "West Baton Rouge Parish", "NAMESHRT": "West Baton Rouge", "x1": -91.485089, "y1": 30.322459, "x2": -91.142105, "y2": 30.658677, "lbl_x": -91.312747, "lbl_y": 30.463415 }, "geometry": { "type": "Point", "coordinates": [ -91.312746667698718, 30.463414793755156 ] } },
{ "type": "Feature", "properties": { "GEOID": "22065", "NAMELSAD": "Madison Parish", "NAMESHRT": "Madison", "x1": -91.557295, "y1": 32.120353, "x2": -90.875621, "y2": 32.562835, "lbl_x": -91.216458, "lbl_y": 32.376969 }, "geometry": { "type": "Point", "coordinates": [ -91.242579699450516, 32.364400994705711 ] } },
{ "type": "Feature", "properties": { "GEOID": "22071", "NAMELSAD": "Orleans Parish", "NAMESHRT": "Orleans", "x1": -90.140074, "y1": 29.866661, "x2": -89.625053, "y2": 30.19866, "lbl_x": -89.928128, "lbl_y": 30.068644 }, "geometry": { "type": "Point", "coordinates": [ -89.928127921000851, 30.068643699132572 ] } },
{ "type": "Feature", "properties": { "GEOID": "22005", "NAMELSAD": "Ascension Parish", "NAMESHRT": "Ascension", "x1": -91.106477, "y1": 30.062478, "x2": -90.632811, "y2": 30.34695, "lbl_x": -90.964241, "lbl_y": 30.204714 }, "geometry": { "type": "Point", "coordinates": [ -90.911291289623506, 30.203544497776818 ] } },
{ "type": "Feature", "properties": { "GEOID": "22001", "NAMELSAD": "Acadia Parish", "NAMESHRT": "Acadia", "x1": -92.632318, "y1": 30.049126, "x2": -92.141507, "y2": 30.481147, "lbl_x": -92.411979, "lbl_y": 30.290533 }, "geometry": { "type": "Point", "coordinates": [ -92.411979116918047, 30.290533358783854 ] } },
{ "type": "Feature", "properties": { "GEOID": "22089", "NAMELSAD": "St. Charles Parish", "NAMESHRT": "St. Charles", "x1": -90.549766, "y1": 29.692028, "x2": -90.167259, "y2": 30.16341, "lbl_x": -90.358513, "lbl_y": 29.883282 }, "geometry": { "type": "Point", "coordinates": [ -90.358220473108204, 29.905528266033262 ] } },
{ "type": "Feature", "properties": { "GEOID": "22011", "NAMELSAD": "Beauregard Parish", "NAMESHRT": "Beauregard", "x1": -93.741679, "y1": 30.402112, "x2": -92.976639, "y2": 30.88374, "lbl_x": -93.343339, "lbl_y": 30.648469 }, "geometry": { "type": "Point", "coordinates": [ -93.343338992971169, 30.648468734913113 ] } },
{ "type": "Feature", "properties": { "GEOID": "22041", "NAMELSAD": "Franklin Parish", "NAMESHRT": "Franklin", "x1": -91.933229, "y1": 31.871896, "x2": -91.45057, "y2": 32.405808, "lbl_x": -91.6919, "lbl_y": 32.113225 }, "geometry": { "type": "Point", "coordinates": [ -91.673765224402047, 32.133216340556864 ] } }
]
}
